{"version": 0.6, "generator": "Overpass API 0.7.62.11 87bfad18", "osm3s": {"timestamp_osm_base": "2026-04-29T13:22:49Z", "copyright": "The data included in this document is from www.openstreetmap.org. The data is made available under ODbL."}, "elements": [{"type": "node", "id": 1537059125, "lat": 36.1147435, "lon": 32.5098336, "tags": {"amenity": "restaurant", "name": "Esentepe Adanal\u0131 Restaurant"}}, {"type": "node", "id": 1556068273, "lat": 36.269184, "lon": 32.3146818, "tags": {"alt_name": "Yesil Vaha", "amenity": "restaurant", "name": "The Green Oasis", "website": "http://www.the-green-oasis-cafe.tk/"}}, {"type": "node", "id": 1556090970, "lat": 36.2706986, "lon": 32.3046357}, {"type": "node", "id": 1591022644, "lat": 36.2645507, "lon": 32.2925668, "tags": {"amenity": "restaurant", "name": "Kamara Cafe Bistro"}}, {"type": "node", "id": 1591022665, "lat": 36.2684519, "lon": 32.3173772, "tags": {"amenity": "cafe", "cuisine": "burger", "name": "Cafe Otantik"}}, {"type": "node", "id": 1591022667, "lat": 36.2679892, "lon": 32.3179928, "tags": {"addr:city": "Antalya", "addr:postcode": "07900", "alt_phone": "5455721952", "amenity": "restaurant", "cuisine": "Etli_Ekmek", "name": "Konyal\u0131 \u00d6zbekler Pide Salonu", "phone": "05344035037"}}, {"type": "node", "id": 1591022696, "lat": 36.266696, "lon": 32.280867, "tags": {"amenity": "restaurant", "name": "Aqua Land"}}, {"type": "node", "id": 1592239918, "lat": 36.2528584, "lon": 32.2868895}, {"type": "node", "id": 1611555707, "lat": 36.2770209, "lon": 32.3161186, "tags": {"amenity": "fast_food", "cuisine": "turkish", "name": "Edeler Pide Kebap"}}, {"type": "node", "id": 1612031448, "lat": 36.2633253, "lon": 32.2848524, "tags": {"amenity": "restaurant", "check_date": "2023-11-19", "name": "Karaca Agaclik"}}, {"type": "node", "id": 1630187953, "lat": 36.2692961, "lon": 32.3176445, "tags": {"amenity": "restaurant", "name": "Ali Yilmaz aus dem Zillertal"}}, {"type": "node", "id": 1630187955, "lat": 36.2685843, "lon": 32.3175065, "tags": {"addr:city": "Antalya", "addr:postcode": "07900", "amenity": "restaurant", "cuisine": "kebab", "delivery": "yes", "name": "Bizim Restaurant", "takeaway": "yes"}}, {"type": "node", "id": 1633659430, "lat": 36.2207279, "lon": 32.4021251, "tags": {"amenity": "cafe", "cuisine": "turkish", "name": "Yalan D\u00fcnya Ma\u011faras\u0131", "website": "facebook.com/yalandunya.magarasi"}}, {"type": "node", "id": 1636478111, "lat": 36.2694117, "lon": 32.3181212, "tags": {"amenity": "restaurant", "cuisine": "turkish", "name": "Lezzet"}}, {"type": "node", "id": 1636482017, "lat": 36.269674, "lon": 32.2806008}, {"type": "node", "id": 2482625757, "lat": 36.26925, "lon": 32.3184836, "tags": {"amenity": "restaurant", "cuisine": "turkish", "name": "Gazipa\u015fa Pide", "phone": "+90 242 572 6668"}}, {"type": "node", "id": 2840925689, "lat": 36.2729085, "lon": 32.3104497, "tags": {"amenity": "cafe", "name": "Nizamo\u011flu"}}, {"type": "node", "id": 2840925690, "lat": 36.2724454, "lon": 32.311323, "tags": {"amenity": "restaurant"}}, {"type": "node", "id": 2840925692, "lat": 36.27123, "lon": 32.3113983, "tags": {"amenity": "restaurant", "name": "Akdeniz Restoran"}}, {"type": "node", "id": 2840947896, "lat": 36.2724346, "lon": 32.310946, "tags": {"amenity": "cafe", "name": "Nazar Pastanesi"}}, {"type": "node", "id": 3421546176, "lat": 36.268783, "lon": 32.3170829, "tags": {"amenity": "restaurant", "cuisine": "turkish", "name": "Aksu K\u00f6fte & Piyaz"}}, {"type": "node", "id": 3455889246, "lat": 36.2660064, "lon": 32.3184561, "tags": {"amenity": "cafe", "name": "Kahvalti"}}, {"type": "node", "id": 3794432557, "lat": 36.2383543, "lon": 32.2969907}, {"type": "node", "id": 3862594271, "lat": 36.2446296, "lon": 32.3465789, "tags": {"amenity": "restaurant", "name": "Say\u0131nlar"}}, {"type": "node", "id": 3865311174, "lat": 36.2681627, "lon": 32.3114103, "tags": {"amenity": "cafe", "check_date": "2023-11-19", "name": "Art cafe garden"}}, {"type": "node", "id": 3865311175, "lat": 36.2689651, "lon": 32.3176998, "tags": {"amenity": "restaurant", "name": "Tadim", "name:da": "Smag"}}, {"type": "node", "id": 3865318049, "lat": 36.2678997, "lon": 32.3098053, "tags": {"amenity": "cafe", "check_date": "2023-11-19", "name": "T\u00fcrkmeno\u011flu"}}, {"type": "node", "id": 3865340671, "lat": 36.2680498, "lon": 32.3177683, "tags": {"amenity": "restaurant", "name": "Numune"}}, {"type": "node", "id": 3865351942, "lat": 36.2680195, "lon": 32.3172855, "tags": {"amenity": "cafe", "name": "Cafe Park"}}, {"type": "node", "id": 3865360997, "lat": 36.2691484, "lon": 32.3173015, "tags": {"amenity": "cafe", "name": "Yurtsan"}}, {"type": "node", "id": 3865360998, "lat": 36.2682877, "lon": 32.31588, "tags": {"amenity": "cafe"}}, {"type": "node", "id": 3865545007, "lat": 36.2727943, "lon": 32.3105424, "tags": {"amenity": "restaurant", "cuisine": "fish", "name": "Elir Restaurant"}}, {"type": "node", "id": 3865556883, "lat": 36.2692263, "lon": 32.3134123, "tags": {"amenity": "restaurant", "name": "D\u00fcr\u00fcm\u00e7\u00fc"}}, {"type": "node", "id": 3865576993, "lat": 36.267693, "lon": 32.3159953, "tags": {"amenity": "cafe", "name": "Golden Apple Pastanesi"}}, {"type": "node", "id": 3865608389, "lat": 36.2749178, "lon": 32.3143136, "tags": {"amenity": "cafe", "name": "Selinus Patanesi"}}, {"type": "node", "id": 3865615194, "lat": 36.2696544, "lon": 32.3177629, "tags": {"amenity": "restaurant", "cuisine": "fish", "name": "G\u00fczel Bal\u0131k\u00e7\u0131l\u0131k", "phone": "+905727262"}}, {"type": "node", "id": 4035208591, "lat": 36.2658577, "lon": 32.2821243}, {"type": "node", "id": 4396333769, "lat": 36.0483622, "lon": 32.8128987, "tags": {"amenity": "restaurant", "name": "Su Sesi"}}, {"type": "node", "id": 4468753299, "lat": 36.2697602, "lon": 32.3136966, "tags": {"amenity": "restaurant", "check_date": "2023-11-19", "cuisine": "turkish", "level": "1", "name": "Otogar"}}, {"type": "node", "id": 4474539114, "lat": 36.2529622, "lon": 32.2869106}, {"type": "node", "id": 4474539115, "lat": 36.2529341, "lon": 32.286842}, {"type": "node", "id": 4474539116, "lat": 36.2528865, "lon": 32.2869582}, {"type": "node", "id": 4475252625, "lat": 36.1004768, "lon": 32.5658722}, {"type": "node", "id": 4475252626, "lat": 36.1005048, "lon": 32.5657942}, {"type": "node", "id": 4475252627, "lat": 36.1004128, "lon": 32.5657436}, {"type": "node", "id": 4475252628, "lat": 36.1003848, "lon": 32.5658217}, {"type": "node", "id": 4485482465, "lat": 36.2751245, "lon": 32.279494}, {"type": "node", "id": 4485482466, "lat": 36.2735533, "lon": 32.2796218}, {"type": "node", "id": 4485482467, "lat": 36.2715781, "lon": 32.2801109, "tags": {"amenity": "restaurant", "name": "Gazipa\u015fa Lavinia"}}, {"type": "node", "id": 4485482468, "lat": 36.27092, "lon": 32.2801745}, {"type": "node", "id": 4485482469, "lat": 36.2723604, "lon": 32.2798889}, {"type": "node", "id": 4485697167, "lat": 36.2670495, "lon": 32.2816328, "tags": {"amenity": "fast_food", "name": "Y\u00f6r\u00fck \u00c7adiri"}}, {"type": "node", "id": 4485697169, "lat": 36.2643359, "lon": 32.2823262}, {"type": "node", "id": 4485700843, "lat": 36.267257, "lon": 32.3080421, "tags": {"amenity": "restaurant", "name": "Yildiz kebap"}}, {"type": "node", "id": 4485703857, "lat": 36.2689205, "lon": 32.3160619, "tags": {"amenity": "fast_food", "brand": "Burger King", "brand:wikidata": "Q177054", "brand:wikipedia": "en:Burger King", "cuisine": "burger", "name": "Burger King", "takeaway": "yes"}}, {"type": "node", "id": 4492342444, "lat": 36.2382937, "lon": 32.296822}, {"type": "node", "id": 4492342447, "lat": 36.2382299, "lon": 32.2968572}, {"type": "node", "id": 4492342449, "lat": 36.2382905, "lon": 32.2970259}, {"type": "node", "id": 4575321713, "lat": 36.0414852, "lon": 32.7982184, "tags": {"amenity": "restaurant", "cuisine": "turkish", "name": "Anamur \u00d6ren \u00c7om\u00e7a", "name:en": "Anamur Chomcha Restaurant"}}, {"type": "node", "id": 5232287469, "lat": 36.2677876, "lon": 32.311911, "tags": {"amenity": "fast_food", "brand": "Domino's", "check_date": "2023-11-19", "cuisine": "pizza", "delivery": "yes", "name": "Domino's", "phone": "5722717", "takeaway": "yes", "website": "https://www.dominos.com.tr/"}}, {"type": "node", "id": 5232287470, "lat": 36.2677985, "lon": 32.3120264, "tags": {"amenity": "cafe", "check_date": "2023-11-19", "name": "Ye\u015fil\u00e7am Kahve Evi"}}, {"type": "node", "id": 5232287472, "lat": 36.2678114, "lon": 32.3121525, "tags": {"amenity": "fast_food", "check_date": "2023-11-19", "name": "\u00d6zcan Kebap"}}, {"type": "node", "id": 5470884025, "lat": 36.040086, "lon": 32.7051468, "tags": {"amenity": "restaurant", "name": "Tenzile Restaurant"}}, {"type": "node", "id": 5470921024, "lat": 36.0724241, "lon": 32.8362418, "tags": {"amenity": "restaurant", "name": "07 \u0130kram Lokantas\u0131"}}, {"type": "node", "id": 5553997823, "lat": 36.2708656, "lon": 32.3128768, "tags": {"amenity": "restaurant", "check_date": "2023-11-19", "name": "Komagene"}}, {"type": "node", "id": 5554011221, "lat": 36.2684555, "lon": 32.3134265, "tags": {"amenity": "cafe", "check_date": "2023-11-19", "name": "Yemen Kahvesi"}}, {"type": "node", "id": 6062628698, "lat": 36.0759354, "lon": 32.8356263, "tags": {"addr:city": "Mersin", "addr:district": "Anamur", "amenity": "cafe", "name": "Anamur Meydan Kafe"}}, {"type": "node", "id": 6068529125, "lat": 36.2360808, "lon": 32.2973261, "tags": {"amenity": "restaurant", "cuisine": "fish", "name": "Feneralt\u0131 Cafe & Restaurant", "website": "https://feneralti.com/"}}, {"type": "node", "id": 6068534301, "lat": 36.2668179, "lon": 32.3017664, "tags": {"amenity": "cafe", "check_date": "2023-11-19", "name": "Ice Berry"}}, {"type": "node", "id": 6068534306, "lat": 36.2649127, "lon": 32.28777, "tags": {"amenity": "restaurant", "name": "Kemer G\u00f6zleme ev\u0131"}}, {"type": "node", "id": 6068537189, "lat": 36.266223, "lon": 32.2965414, "tags": {"amenity": "fast_food", "check_date": "2023-11-19", "name": "Fast Green Food"}}, {"type": "node", "id": 6068537210, "lat": 36.2646803, "lon": 32.2878804, "tags": {"amenity": "restaurant", "check_date": "2023-11-19", "name": "Enginar"}}, {"type": "node", "id": 6072991652, "lat": 36.268985, "lon": 32.3144133, "tags": {"amenity": "restaurant", "check_date": "2023-11-19", "name": "Isiklar kebap", "opening_hours": "24/7"}}, {"type": "node", "id": 6072991654, "lat": 36.2693369, "lon": 32.3132859, "tags": {"amenity": "restaurant", "name": "Pa\u015fam"}}, {"type": "node", "id": 6072991809, "lat": 36.2714666, "lon": 32.3111867, "tags": {"amenity": "cafe", "name": "Sevge Kahvalti"}}, {"type": "node", "id": 6442357074, "lat": 36.2722104, "lon": 32.3088266, "tags": {"amenity": "cafe", "name": "Haclalio\u011flu"}}, {"type": "node", "id": 6654987350, "lat": 36.2661737, "lon": 32.3226035, "tags": {"amenity": "restaurant", "cuisine": "turkish", "name": "Ota\u011f-I A'la"}}, {"type": "node", "id": 6792116393, "lat": 36.2707479, "lon": 32.3047227}, {"type": "node", "id": 6792116394, "lat": 36.2706284, "lon": 32.3046342}, {"type": "node", "id": 6792116395, "lat": 36.2707119, "lon": 32.304837}, {"type": "node", "id": 6792116396, "lat": 36.2706083, "lon": 32.3048309}, {"type": "node", "id": 6792116397, "lat": 36.2705699, "lon": 32.3047081}, {"type": "node", "id": 7849257186, "lat": 36.0968272, "lon": 32.6281539, "tags": {"amenity": "cafe"}}, {"type": "node", "id": 8508603541, "lat": 36.1601822, "lon": 32.4211161, "tags": {"amenity": "cafe", "cuisine": "turkish", "name": "Kral Koyu Caf\u00e9- Kaddafi Muhtar\u0131n Yeri"}}, {"type": "node", "id": 8579394651, "lat": 36.2710952, "lon": 32.3122113, "tags": {"amenity": "cafe", "check_date": "2023-11-19", "name": "\u015eefler'in Evi Bistro&Patiserie"}}, {"type": "node", "id": 9263500952, "lat": 36.1547012, "lon": 32.426106, "tags": {"amenity": "cafe", "cuisine": "turkish", "name": "Yakup A\u011fa nin yeri"}}, {"type": "node", "id": 9277589276, "lat": 36.2413444, "lon": 32.2946495}, {"type": "node", "id": 9277589278, "lat": 36.2438171, "lon": 32.2930986}, {"type": "node", "id": 9299440783, "lat": 36.2605887, "lon": 32.2898532}, {"type": "node", "id": 9299440785, "lat": 36.260669, "lon": 32.2897737}, {"type": "node", "id": 9299440789, "lat": 36.2606767, "lon": 32.2898366}, {"type": "node", "id": 9299440793, "lat": 36.260581, "lon": 32.2897903}, {"type": "node", "id": 9355574030, "lat": 36.2679558, "lon": 32.2808585}, {"type": "node", "id": 9355574031, "lat": 36.2680051, "lon": 32.2808481}, {"type": "node", "id": 9355574032, "lat": 36.2680094, "lon": 32.2808797}, {"type": "node", "id": 9355574033, "lat": 36.2679601, "lon": 32.28089}, {"type": "node", "id": 9355578333, "lat": 36.2682667, "lon": 32.2809157}, {"type": "node", "id": 9355578334, "lat": 36.2683555, "lon": 32.280884}, {"type": "node", "id": 9355578335, "lat": 36.2682862, "lon": 32.2809996}, {"type": "node", "id": 9355578336, "lat": 36.268375, "lon": 32.2809679}, {"type": "node", "id": 9365563725, "lat": 36.2698576, "lon": 32.3194076}, {"type": "node", "id": 9365563726, "lat": 36.269813, "lon": 32.3195607}, {"type": "node", "id": 9365563727, "lat": 36.2697751, "lon": 32.3195165}, {"type": "node", "id": 9365563728, "lat": 36.2698955, "lon": 32.3194518}, {"type": "node", "id": 9674160188, "lat": 36.268268, "lon": 32.3181293, "tags": {"amenity": "fast_food", "cuisine": "turkish", "name": "Sevim\u00b4in Yeri"}}, {"type": "node", "id": 9696922083, "lat": 36.2665008, "lon": 32.2814139}, {"type": "node", "id": 9696922084, "lat": 36.2663699, "lon": 32.2814421}, {"type": "node", "id": 9696922085, "lat": 36.2663532, "lon": 32.281343}, {"type": "node", "id": 9696922087, "lat": 36.2658538, "lon": 32.2821891}, {"type": "node", "id": 9696922088, "lat": 36.2657954, "lon": 32.2821837}, {"type": "node", "id": 9696922089, "lat": 36.2657993, "lon": 32.2821189}, {"type": "node", "id": 9696922115, "lat": 36.2642444, "lon": 32.2822941}, {"type": "node", "id": 9696922116, "lat": 36.2642055, "lon": 32.2824643}, {"type": "node", "id": 9696922117, "lat": 36.264297, "lon": 32.2824964}, {"type": "node", "id": 9708699931, "lat": 36.2681089, "lon": 32.3180629, "tags": {"amenity": "restaurant", "name": "Sevim' in yeri"}}, {"type": "node", "id": 9724755050, "lat": 36.2754668, "lon": 32.3047723, "tags": {"amenity": "restaurant", "cuisine": "turkish", "name": "LafLafa", "phone": "02425726888", "website": "http://www.laflafacafe.com/"}}, {"type": "node", "id": 9752683691, "lat": 36.0479322, "lon": 32.7862935, "tags": {"addr:city": "Mersin", "addr:district": "Anamur", "addr:housenumber": "6", "addr:neighbourhood": "\u00d6ren Mahallesi", "addr:street": "Ortak\u00f6y Caddesi", "amenity": "cafe", "cuisine": "kebab;coffee_shop;turkish;fast_food", "image": "https://imgyukle.com/f/2022/05/18/RMC2Uf.jpg", "internet_access": "no", "name": "Karak\u0131z Cafe", "opening_hours": "Mo-Su 11:00-23:00", "outdoor_seating": "yes", "payment:cash": "yes", "payment:credit_cards": "yes", "phone": "+905524127566", "smoking": "separated"}}, {"type": "node", "id": 9852689889, "lat": 36.2649596, "lon": 32.2880032, "tags": {"amenity": "fast_food", "cuisine": "turkish", "name": "HAPPY Bistro Cafe Pizza"}}, {"type": "node", "id": 9919334033, "lat": 36.2664863, "lon": 32.2813136}, {"type": "node", "id": 9919337593, "lat": 36.2670083, "lon": 32.2806643}, {"type": "node", "id": 9919337594, "lat": 36.2666857, "lon": 32.28055}, {"type": "node", "id": 9919337595, "lat": 36.2669836, "lon": 32.2804864}, {"type": "node", "id": 9919337597, "lat": 36.2708636, "lon": 32.2801806}, {"type": "node", "id": 9919337600, "lat": 36.2667104, "lon": 32.2807278}, {"type": "node", "id": 9919363874, "lat": 36.2657906, "lon": 32.280885, "tags": {"amenity": "fast_food", "cuisine": "turkish", "name": "Selinus G\u00f6zleme Evi"}}, {"type": "node", "id": 10101408074, "lat": 36.2728533, "lon": 32.310617, "tags": {"amenity": "restaurant", "cuisine": "fish", "name": "Gazipa\u015fa Balik Evi"}}, {"type": "node", "id": 10101408075, "lat": 36.2729269, "lon": 32.3106116, "tags": {"amenity": "fast_food", "cuisine": "pizza", "name": "Pizza  Pizza"}}, {"type": "node", "id": 10116240854, "lat": 36.2685197, "lon": 32.3105962, "tags": {"amenity": "cafe", "name": "Cafe Dem"}}, {"type": "node", "id": 10177681120, "lat": 36.1149574, "lon": 32.5101606, "tags": {"amenity": "restaurant", "name": "Adanali Kemal Usta", "website": "http://adanalikemalusta.com"}}, {"type": "node", "id": 10197934335, "lat": 36.2705364, "lon": 32.3191137, "tags": {"amenity": "cafe", "name": "Papatya Cafe"}}, {"type": "node", "id": 10199994990, "lat": 36.2694815, "lon": 32.3189125, "tags": {"amenity": "fast_food", "cuisine": "turkish", "name": "Me\u015fhur K\u00f6fte\u00e7i"}}, {"type": "node", "id": 10199994992, "lat": 36.2693389, "lon": 32.3189993, "tags": {"amenity": "cafe", "name": "G\u00fcrb\u00fczler Cay Evi"}}, {"type": "node", "id": 10313136209, "lat": 36.0748978, "lon": 32.8306248, "tags": {"addr:housenumber": "401", "addr:postcode": "33640", "addr:street": "Ye\u015filyurt Mah.", "amenity": "cafe", "cuisine": "international;mediterranean;turkish", "internet_access": "wlan", "internet_access:fee": "no", "name": "Park Point", "opening_hours": "Mo-Su 09:00-00:00", "outdoor_seating": "yes", "website": "http://parkpointcafe.com"}}, {"type": "node", "id": 10313186209, "lat": 36.0704519, "lon": 32.8353229, "tags": {"addr:housenumber": "19", "addr:postcode": "33650", "addr:street": "G\u00fczelyurt Mah.", "amenity": "cafe", "cuisine": "international", "internet_access": "wlan", "level": "1", "name": "Noww Croissants & Coffee Anamur", "opening_hours": "Mo-Su 09:00-00:00"}}, {"type": "node", "id": 10578743055, "lat": 36.0750967, "lon": 32.8375582, "tags": {"addr:housenumber": "29", "addr:street": "Ekim Cd karakaya", "amenity": "cafe", "cuisine": "coffee_shop", "internet_access": "wlan", "internet_access:fee": "no", "name": "Orange bean Coffee", "opening_hours": "Mo-Su 08:00-22:00", "outdoor_seating": "yes"}}, {"type": "node", "id": 10613858996, "lat": 36.2451528, "lon": 32.292063}, {"type": "node", "id": 10613858997, "lat": 36.2451818, "lon": 32.2921323}, {"type": "node", "id": 10613858998, "lat": 36.2452775, "lon": 32.2920708}, {"type": "node", "id": 10613858999, "lat": 36.2452485, "lon": 32.2920014}, {"type": "node", "id": 10613861209, "lat": 36.243762, "lon": 32.2931496}, {"type": "node", "id": 10613861210, "lat": 36.2437414, "lon": 32.2931161}, {"type": "node", "id": 10613861211, "lat": 36.2437998, "lon": 32.2930664}, {"type": "node", "id": 10613861225, "lat": 36.2412274, "lon": 32.294727}, {"type": "node", "id": 10613861226, "lat": 36.2411714, "lon": 32.2945948}, {"type": "node", "id": 10613861227, "lat": 36.2412873, "lon": 32.2945202}, {"type": "node", "id": 10814281483, "lat": 36.274982, "lon": 32.2795275}, {"type": "node", "id": 10814281484, "lat": 36.2749569, "lon": 32.2793629}, {"type": "node", "id": 10814281485, "lat": 36.2750629, "lon": 32.279338}, {"type": "node", "id": 10814281486, "lat": 36.2750758, "lon": 32.2794224}, {"type": "node", "id": 10814281487, "lat": 36.2751123, "lon": 32.2794138}, {"type": "node", "id": 10814281500, "lat": 36.2735778, "lon": 32.2798318}, {"type": "node", "id": 10814281501, "lat": 36.2736919, "lon": 32.2798113}, {"type": "node", "id": 10814281502, "lat": 36.2736866, "lon": 32.2797659}, {"type": "node", "id": 10814281503, "lat": 36.2737058, "lon": 32.2797624}, {"type": "node", "id": 10814281504, "lat": 36.2736866, "lon": 32.2795979}, {"type": "node", "id": 10814331409, "lat": 36.2723869, "lon": 32.2800966}, {"type": "node", "id": 10814331410, "lat": 36.2722846, "lon": 32.2801166}, {"type": "node", "id": 10814331411, "lat": 36.2722581, "lon": 32.279909}, {"type": "node", "id": 10814331412, "lat": 36.2709505, "lon": 32.2803855}, {"type": "node", "id": 10814331413, "lat": 36.2710543, "lon": 32.2803624}, {"type": "node", "id": 10814331414, "lat": 36.2710238, "lon": 32.2801514}, {"type": "node", "id": 10814331415, "lat": 36.2709029, "lon": 32.2803805}, {"type": "node", "id": 10814331416, "lat": 36.2708626, "lon": 32.2803927}, {"type": "node", "id": 10814331417, "lat": 36.2708453, "lon": 32.2803046}, {"type": "node", "id": 10814331418, "lat": 36.2707146, "lon": 32.2803441}, {"type": "node", "id": 10814331419, "lat": 36.2706926, "lon": 32.2802323}, {"type": "node", "id": 10814331420, "lat": 36.2696857, "lon": 32.2806454}, {"type": "node", "id": 10814331421, "lat": 36.2697084, "lon": 32.2806362}, {"type": "node", "id": 10814331422, "lat": 36.2697392, "lon": 32.2807528}, {"type": "node", "id": 10814331423, "lat": 36.2696379, "lon": 32.2807939}, {"type": "node", "id": 10814331424, "lat": 36.2696086, "lon": 32.2806825}, {"type": "node", "id": 10814331425, "lat": 36.2696294, "lon": 32.2806741}, {"type": "node", "id": 10814331426, "lat": 36.2696163, "lon": 32.2806242}, {"type": "node", "id": 10820091668, "lat": 36.2614978, "lon": 32.2875524}, {"type": "node", "id": 10820091669, "lat": 36.2614648, "lon": 32.2877083}, {"type": "node", "id": 10820091670, "lat": 36.261371, "lon": 32.2876778}, {"type": "node", "id": 10820091671, "lat": 36.261404, "lon": 32.2875218}, {"type": "node", "id": 10865410847, "lat": 36.2688972, "lon": 32.3152055}, {"type": "node", "id": 10865410848, "lat": 36.268901, "lon": 32.3152046}, {"type": "node", "id": 10865410849, "lat": 36.268898, "lon": 32.3152182}, {"type": "node", "id": 10865410850, "lat": 36.2689047, "lon": 32.3152075}, {"type": "node", "id": 10865410851, "lat": 36.2689043, "lon": 32.3152165}, {"type": "node", "id": 10865410852, "lat": 36.2688951, "lon": 32.315215}, {"type": "node", "id": 10865410853, "lat": 36.2689054, "lon": 32.3152144}, {"type": "node", "id": 10865410854, "lat": 36.2688999, "lon": 32.3152187}, {"type": "node", "id": 10865410855, "lat": 36.2691221, "lon": 32.3155154, "tags": {"amenity": "fast_food", "cuisine": "turkish", "name": "Ekrem Co\u015fkun D\u00f6ner"}}, {"type": "node", "id": 10865410856, "lat": 36.2689033, "lon": 32.3152058}, {"type": "node", "id": 10865410857, "lat": 36.2689058, "lon": 32.3152121}, {"type": "node", "id": 10865410858, "lat": 36.2688963, "lon": 32.3152169}, {"type": "node", "id": 10865410859, "lat": 36.2688991, "lon": 32.3152047}, {"type": "node", "id": 10865410860, "lat": 36.2689056, "lon": 32.3152097}, {"type": "node", "id": 10865410861, "lat": 36.2688947, "lon": 32.3152093}, {"type": "node", "id": 10865410862, "lat": 36.2689019, "lon": 32.3152184}, {"type": "node", "id": 10865410863, "lat": 36.2688944, "lon": 32.3152126}, {"type": "node", "id": 10865410864, "lat": 36.2688957, "lon": 32.3152071}, {"type": "node", "id": 11092336305, "lat": 36.0764684, "lon": 32.8311804, "tags": {"amenity": "cafe", "name": "Suleyman Usta"}}, {"type": "node", "id": 11252905822, "lat": 36.2304692, "lon": 32.3762837, "tags": {"amenity": "restaurant", "name": "\u00c7elikler Dinlenme Tesisler\u0131", "source": "bing"}}, {"type": "node", "id": 11304315302, "lat": 36.2689848, "lon": 32.3173026, "tags": {"amenity": "fast_food", "name": "Levent B\u00f6rek"}}, {"type": "node", "id": 11329273695, "lat": 36.2695434, "lon": 32.3176728, "tags": {"amenity": "cafe", "name": "D\u00f6rtyol \u00c7ay Evi", "phone": "0544 311 2599"}}, {"type": "node", "id": 11329297777, "lat": 36.2695306, "lon": 32.3176422, "tags": {"amenity": "restaurant", "name": "Terminal Kebap", "phone": "02425722949"}}, {"type": "node", "id": 11361268723, "lat": 36.2674147, "lon": 32.3062024, "tags": {"amenity": "cafe", "check_date": "2023-11-19", "name": "\u015eefim"}}, {"type": "node", "id": 11361327087, "lat": 36.2661705, "lon": 32.3004739, "tags": {"amenity": "fast_food", "check_date": "2023-11-19", "cuisine": "burger", "name": "Monkey burger"}}, {"type": "node", "id": 11361328325, "lat": 36.2658301, "lon": 32.2938179, "tags": {"amenity": "cafe", "check_date": "2023-11-19", "cuisine": "coffee_shop", "name": "Palm coffee"}}, {"type": "node", "id": 11361328326, "lat": 36.2652878, "lon": 32.2938656, "tags": {"amenity": "cafe", "check_date": "2023-11-19", "name": "No keyf"}}, {"type": "node", "id": 11361328327, "lat": 36.2652212, "lon": 32.2935016, "tags": {"amenity": "cafe", "check_date": "2023-11-19", "cuisine": "coffee_shop", "name": "Roby's coffee house"}}, {"type": "node", "id": 11361334744, "lat": 36.2661924, "lon": 32.2963124, "tags": {"amenity": "fast_food", "check_date": "2023-11-19", "name": "Adiyaman \u00e7ig k\u00f6ftecisi"}}, {"type": "node", "id": 11361334745, "lat": 36.2661243, "lon": 32.2961198, "tags": {"amenity": "cafe", "check_date": "2023-11-19", "cuisine": "coffee_shop;sandwich", "name": "Pigro coffee shop", "takeaway": "yes"}}, {"type": "node", "id": 11361465560, "lat": 36.264544, "lon": 32.287618, "tags": {"amenity": "cafe", "check_date": "2023-11-19", "name": "\u00c7\u0131ra Restaurant"}}, {"type": "node", "id": 11361465561, "lat": 36.2645098, "lon": 32.2874434, "tags": {"amenity": "cafe", "check_date": "2023-11-19", "cuisine": "coffee_shop", "name": "Mixx point"}}, {"type": "node", "id": 11361465562, "lat": 36.2649033, "lon": 32.2873883, "tags": {"amenity": "cafe", "check_date": "2023-11-19", "description": "Lounge cafe", "name": "Muz Dali"}}, {"type": "node", "id": 11361775325, "lat": 36.2661858, "lon": 32.3006122, "tags": {"amenity": "cafe", "check_date": "2023-11-19", "name": "Mersin class Tantuni"}}, {"type": "node", "id": 11361798933, "lat": 36.2658503, "lon": 32.293926, "tags": {"amenity": "restaurant", "check_date": "2024-08-01", "name": "Cajun Corner Gazipa\u015fa"}}, {"type": "node", "id": 11361798936, "lat": 36.2658155, "lon": 32.2976971, "tags": {"amenity": "cafe", "check_date": "2023-11-19", "cuisine": "coffee_shop", "name": "Atom master"}}, {"type": "node", "id": 11361798937, "lat": 36.2659155, "lon": 32.298564, "tags": {"amenity": "cafe", "check_date": "2023-11-19", "name": "Adig\u00fczel K\u00fcnefe"}}, {"type": "node", "id": 11361801269, "lat": 36.2652179, "lon": 32.2894462, "tags": {"amenity": "fast_food", "check_date": "2023-11-19", "name": "Kokomix"}}, {"type": "node", "id": 11361801270, "lat": 36.2652345, "lon": 32.2897147, "tags": {"amenity": "cafe", "check_date": "2023-11-19", "name": "Last summer"}}, {"type": "node", "id": 11362322351, "lat": 36.2693163, "lon": 32.3140528, "tags": {"amenity": "cafe", "check_date": "2023-11-19", "name": "Akdeniz dondurma"}}, {"type": "node", "id": 11362322352, "lat": 36.2691412, "lon": 32.314281, "tags": {"amenity": "fast_food", "check_date": "2023-11-19", "name": "Cadde"}}, {"type": "node", "id": 11929142150, "lat": 36.2685954, "lon": 32.3154015, "tags": {"amenity": "restaurant", "name": "Tavada Tavuk"}}, {"type": "node", "id": 12074509878, "lat": 36.2502793, "lon": 32.3821685}, {"type": "node", "id": 12074509879, "lat": 36.2503783, "lon": 32.3824621}, {"type": "node", "id": 12074509880, "lat": 36.2500713, "lon": 32.3826243}, {"type": "node", "id": 12074509881, "lat": 36.2500046, "lon": 32.3824219}, {"type": "node", "id": 12074509882, "lat": 36.2500681, "lon": 32.3822056}, {"type": "node", "id": 12074509883, "lat": 36.250199, "lon": 32.3821438}, {"type": "node", "id": 12293426722, "lat": 36.2452953, "lon": 32.2964158, "tags": {"amenity": "fast_food", "name": "Chai"}}, {"type": "node", "id": 12293426723, "lat": 36.272168, "lon": 32.2799501, "tags": {"amenity": "restaurant", "name": "La Boheme"}}, {"type": "node", "id": 12323354919, "lat": 36.1725729, "lon": 32.4440343, "tags": {"amenity": "cafe", "name": "Asya Piknik"}}, {"type": "node", "id": 12324388929, "lat": 36.1269711, "lon": 32.7599073}, {"type": "node", "id": 12324388930, "lat": 36.1270193, "lon": 32.7600162}, {"type": "node", "id": 12324388931, "lat": 36.1269372, "lon": 32.7600719}, {"type": "node", "id": 12324388932, "lat": 36.126889, "lon": 32.759963}, {"type": "node", "id": 13265497988, "lat": 36.2668178, "lon": 32.3019239, "tags": {"amenity": "restaurant", "name": "Sefa Kasap", "note": "Et&Mangal", "shop": "butcher"}}, {"type": "node", "id": 13277247090, "lat": 36.251983, "lon": 32.2923732, "tags": {"amenity": "fast_food", "cuisine": "turkish", "name": "\u00c7ardak G\u00f6zleme"}}, {"type": "node", "id": 13283706431, "lat": 36.2306466, "lon": 32.3761304, "tags": {"amenity": "cafe", "cuisine": "turkish", "name": "Cafe Hediyelik ", "shop": "souvenirs"}}, {"type": "node", "id": 13287292083, "lat": 36.2653236, "lon": 32.2815855, "tags": {"amenity": "fast_food", "cuisine": "turkish", "name": "Pa\u015fa Kokorec & K\u00f6fte"}}, {"type": "node", "id": 13287292084, "lat": 36.265718, "lon": 32.2815512, "tags": {"amenity": "fast_food", "cuisine": "turkish", "name": "Art K\u00f6fte D\u00fcr\u00fcm"}}, {"type": "node", "id": 13744666845, "lat": 36.2696448, "lon": 32.3178121, "tags": {"amenity": "restaurant", "name": "Akdeniz bal\u0131k\u00e7\u0131l\u0131k & restaurant", "phone": "0242 572 72 61", "phone:delivery": "0531 425 90 90"}}, {"type": "way", "id": 450529893, "nodes": [1592239918, 4474539115, 4474539114, 4474539116, 1592239918], "tags": {"amenity": "restaurant", "building": "yes", "cuisine": "fish", "int_name": "Fatih's Place", "name": "B\u0131d\u0131 B\u0131d\u0131 Beach", "name:de": "Biddi Biddi", "phone": "0534 848 63 67", "source": "bing"}}, {"type": "way", "id": 450605664, "nodes": [4475252626, 4475252627, 4475252628, 4475252625, 4475252626], "tags": {"amenity": "cafe", "name": "Endee Cafe", "operational_status": "closed"}}, {"type": "way", "id": 452437715, "nodes": [3794432557, 4492342444, 4492342447, 4492342449, 3794432557], "tags": {"addr:city": "Gazipa\u015fa", "addr:housename": "Bello Beach", "addr:housenumber": "316", "addr:postcode": "07900", "addr:street": "Cumhuriyet Caddesi;Koru Mah. Do\u011fal Havuzlar Yan\u0131", "amenity": "restaurant", "cuisine": "turkish", "delivery": "yes", "name": "Bello Beach", "phone": "+90 533 392 0902", "phone:delivery": "0539 742 3086"}}, {"type": "way", "id": 724234687, "nodes": [6792116397, 6792116396, 6792116395, 6792116393, 1556090970, 6792116394, 6792116397], "tags": {"amenity": "restaurant", "building": "yes", "cuisine": "turkish", "name": "CebeliTeyirtepe Restaurant", "website": "https://www.facebook.com/cebelitepesi/"}}, {"type": "way", "id": 1008014286, "nodes": [9299440785, 9299440789, 9299440783, 9299440793, 9299440785], "tags": {"amenity": "cafe"}}, {"type": "way", "id": 1014045173, "nodes": [9355578334, 9355578336, 9355578335, 9355578333, 9355578334], "tags": {"amenity": "fast_food", "building": "yes", "check_date": "2023-11-19", "name": "Halk B\u00fcfe ve Plaj\u0131"}}, {"type": "way", "id": 1014045255, "nodes": [9355574031, 9355574032, 9355574033, 9355574030, 9355574031], "tags": {"amenity": "cafe", "building": "yes", "name": "Aqua Cafe"}}, {"type": "way", "id": 1015261296, "nodes": [9365563728, 9365563726, 9365563727, 9365563725, 9365563728], "tags": {"amenity": "cafe", "house": "yes", "name": "Atat\u00fcrk\u00e7\u00fc D\u00fcs\u00fcnce Derne\u011fi"}}, {"type": "way", "id": 1055295381, "nodes": [9919334033, 9696922083, 9696922084, 9696922085, 9919334033], "tags": {"amenity": "restaurant", "building": "yes", "cuisine": "fish", "name": "Bal\u0131kevi Restoran"}}, {"type": "way", "id": 1055295382, "nodes": [4035208591, 9696922087, 9696922088, 9696922089, 4035208591], "tags": {"amenity": "fast_food", "building": "yes", "name": "Deniz G\u00f6zleme"}}, {"type": "way", "id": 1055295389, "nodes": [4485697169, 9696922117, 9696922116, 9696922115, 4485697169], "tags": {"amenity": "restaurant", "building": "yes", "check_date": "2023-11-19", "name": "Begonvil B\u00fcfe"}}, {"type": "way", "id": 1082338929, "nodes": [9919337595, 9919337593, 9919337600, 9919337594, 9919337595], "tags": {"amenity": "restaurant", "building": "yes", "cuisine": "fish", "name": "Selinus Bal\u0131k Restorant"}}, {"type": "way", "id": 1138627344, "nodes": [10613858996, 10613858997, 10613858998, 10613858999, 10613858996], "tags": {"amenity": "cafe", "building": "yes", "name": "Koru Halk Bufe"}}, {"type": "way", "id": 1138627346, "nodes": [9277589278, 10613861209, 10613861210, 10613861211, 9277589278], "tags": {"amenity": "restaurant", "building": "yes", "cuisine": "turkish", "name": "Moonlight Beach"}}, {"type": "way", "id": 1138627349, "nodes": [9277589276, 10613861225, 10613861226, 10613861227, 9277589276], "tags": {"addr:housenumber": "5", "addr:street": "19018 Sokak", "amenity": "restaurant", "building": "yes", "cuisine": "turkish", "name": "Mango Beach", "phone": "05358361780"}}, {"type": "way", "id": 1162781884, "nodes": [4485482465, 10814281483, 10814281484, 10814281485, 10814281486, 10814281487, 4485482465], "tags": {"amenity": "restaurant", "building": "yes", "check_date": "2023-11-19", "name": "Tyana gold & beach"}}, {"type": "way", "id": 1162781886, "nodes": [4485482466, 10814281500, 10814281501, 10814281502, 10814281503, 10814281504, 4485482466], "tags": {"amenity": "restaurant", "building": "yes", "check_date": "2023-11-19", "name": "Gazipa\u015fa Lavinia"}}, {"type": "way", "id": 1162781888, "nodes": [4485482469, 10814331409, 10814331410, 10814331411, 4485482469], "tags": {"amenity": "restaurant", "building": "yes", "check_date": "2023-11-19", "name": "Sugar Beach Cafe"}}, {"type": "way", "id": 1162781889, "nodes": [4485482468, 10814331412, 10814331413, 10814331414, 4485482468], "tags": {"amenity": "restaurant", "building": "yes", "name": "Koruba\u015f\u0131 Beach Restoran"}}, {"type": "way", "id": 1162781890, "nodes": [9919337597, 10814331415, 10814331416, 10814331417, 10814331418, 10814331419, 9919337597], "tags": {"addr:housenumber": "7", "amenity": "restaurant", "building": "yes", "check_date": "2023-11-19", "name": "Sefa Beach"}}, {"type": "way", "id": 1162781891, "nodes": [1636482017, 10814331420, 10814331421, 10814331422, 10814331423, 10814331424, 10814331425, 10814331426, 1636482017], "tags": {"amenity": "restaurant", "building": "yes", "check_date": "2023-11-19", "name": "Nanu Beach"}}, {"type": "way", "id": 1163445559, "nodes": [10820091668, 10820091669, 10820091670, 10820091671, 10820091668]}, {"type": "way", "id": 1168314627, "nodes": [10865410861, 10865410864, 10865410847, 10865410859, 10865410848, 10865410856, 10865410850, 10865410860, 10865410857, 10865410853, 10865410851, 10865410862, 10865410854, 10865410849, 10865410858, 10865410852, 10865410863, 10865410861], "tags": {"amenity": "cafe", "cuisine": "ice_cream", "name": "Doping Buf\u00e9"}}, {"type": "way", "id": 1303808818, "nodes": [12074509878, 12074509879, 12074509880, 12074509881, 12074509882, 12074509883, 12074509878], "tags": {"amenity": "restaurant", "building": "yes", "name": "\u015eirin \u00c7ardak"}}, {"type": "way", "id": 1332049593, "nodes": [12324388929, 12324388930, 12324388931, 12324388932, 12324388929], "tags": {"amenity": "cafe", "building": "yes", "name": "K\u00f6\u015fekb\u00fck\u00fc Cafe"}}, {"type": "relation", "id": 15737418, "members": [{"type": "way", "ref": 1163445559, "role": "outer"}], "tags": {"amenity": "cafe", "type": "multipolygon"}}]}