{"version": 0.6, "generator": "Overpass API 0.7.62.11 87bfad18", "osm3s": {"timestamp_osm_base": "2026-04-29T13:18:44Z", "copyright": "The data included in this document is from www.openstreetmap.org. The data is made available under ODbL."}, "elements": [{"type": "node", "id": 60219938, "lat": 35.0405751, "lon": 32.395783, "tags": {"amenity": "cafe", "created_by": "Potlatch alpha", "cuisine": "mediterranean", "name": "noma", "outdoor_seating": "yes", "website": "https://nomalatchi.com"}}, {"type": "node", "id": 60219940, "lat": 35.0408646, "lon": 32.3948059, "tags": {"amenity": "restaurant", "name": "HarbourCafe"}}, {"type": "node", "id": 60219941, "lat": 35.0409918, "lon": 32.3942257, "tags": {"amenity": "restaurant", "created_by": "Potlatch alpha", "diet:vegetarian": "yes", "internet_access": "wlan", "name": "Molos", "name:en": "Molos", "opening_hours": "Mo-Su 09:30-23:00", "wheelchair": "yes"}}, {"type": "node", "id": 60219970, "lat": 35.041032, "lon": 32.393938, "tags": {"amenity": "restaurant", "created_by": "Potlatch alpha", "name": "Seacrest Restaurant"}}, {"type": "node", "id": 244382364, "lat": 35.0393537, "lon": 32.3994755, "tags": {"amenity": "restaurant", "created_by": "Potlatch 0.6c", "cuisine": "seafood;fish", "name": "Psaropoulos Fish Tavern", "name:en": "Psaropoulos Fish Tavern"}}, {"type": "node", "id": 393398870, "lat": 35.0298631, "lon": 32.4199389, "tags": {"addr:housenumber": "19", "addr:postcode": "8820", "addr:street": "Leoforos Vasileiou Stasiokou", "amenity": "restaurant", "cuisine": "pizza;local;kebab;chicken;burger;grill;pasta", "email": "kyriacos@alkionest.com", "internet_access": "wlan", "name": "\u03a4\u03b7\u03c2 \u03a0\u03af\u03c4\u03c3\u03b1\u03c2 \u039c\u03b5\u03b6\u03b5\u03ba\u03bb\u03af\u03ba\u03b9\u03b1", "opening_hours": "Mo-Su 11:00-23:00", "phone": "0035726323393"}}, {"type": "node", "id": 393913392, "lat": 35.0343966, "lon": 32.4105129, "tags": {"amenity": "restaurant", "cuisine": "chinese", "name": "Yangtze", "phone": "+357-26323047"}}, {"type": "node", "id": 533818735, "lat": 35.0323559, "lon": 32.4142363, "tags": {"amenity": "fast_food", "name": "Homemade Hamburger"}}, {"type": "node", "id": 533818747, "lat": 35.0468533, "lon": 32.3604689, "tags": {"amenity": "restaurant", "description": "\u0645\u0637\u0639\u0645 \u0633\u0645\u0643", "name": "Yiannakis", "name:de": "Yiannakis", "name:el": "\u0393\u03b9\u03b1\u03bd\u03bd\u03ac\u03ba\u03b7\u03c2"}}, {"type": "node", "id": 558850001, "lat": 35.0358997, "lon": 32.4272308, "tags": {"amenity": "cafe", "check_date": "2024-10-27", "name": "Royal Cafe"}}, {"type": "node", "id": 669029768, "lat": 35.0561625, "lon": 32.347492}, {"type": "node", "id": 669029770, "lat": 35.0562015, "lon": 32.347569}, {"type": "node", "id": 669029772, "lat": 35.0564936, "lon": 32.347376}, {"type": "node", "id": 977597088, "lat": 35.0363423, "lon": 32.4245274, "tags": {"amenity": "restaurant", "name": "Myrafiori"}}, {"type": "node", "id": 977597089, "lat": 35.0385005, "lon": 32.4248365, "tags": {"addr:city": "Polis Chrysochous", "amenity": "restaurant", "cuisine": "greek", "email": "chkarouz@cytanet.com.cy", "name": "Christos Karouzis", "opening_hours": "We-Mo 13:00-23:00", "phone": "+35726321888", "smoking": "outside", "source": "survey"}}, {"type": "node", "id": 977597095, "lat": 35.0352476, "lon": 32.4238928, "tags": {"amenity": "restaurant", "check_date": "2024-10-27", "cuisine": "greek", "indoor_seating": "yes", "name": "Chix Chox", "outdoor_seating": "yes", "wheelchair": "limited"}}, {"type": "node", "id": 977597097, "lat": 35.0341938, "lon": 32.4243273, "tags": {"amenity": "restaurant", "check_date": "2024-10-27", "indoor_seating": "yes", "name": "Charlies Mikis Restaurant", "outdoor_seating": "yes"}}, {"type": "node", "id": 977597107, "lat": 35.0403425, "lon": 32.4271257, "tags": {"addr:housenumber": "14", "amenity": "restaurant", "cuisine": "greek", "name": "Vomos"}}, {"type": "node", "id": 979253460, "lat": 34.9950147, "lon": 32.5117925, "tags": {"addr:city": "Lysos", "addr:housenumber": "20", "addr:street": "Leoforos Archiepiskou Makariou III", "amenity": "cafe", "cuisine": "coffee_shop;burger;regional", "internet_access": "yes", "internet_access:fee": "no", "name": "Maros Place", "opening_hours": "Mo-Su 05:00-20:00", "smoking": "outside"}}, {"type": "node", "id": 982619319, "lat": 35.0353031, "lon": 32.4256521, "tags": {"addr:housenumber": "14", "addr:street": "\u039c\u03b1\u03ba\u03b1\u03c1\u03af\u03bf\u03c5 \u0393\u0384", "amenity": "restaurant", "cuisine": "greek", "name": "Archontariki", "url": "http://www.archontariki.com.cy/"}}, {"type": "node", "id": 1255005881, "lat": 35.0326282, "lon": 32.4271586, "tags": {"amenity": "restaurant", "cuisine": "greek", "indoor_seating": "yes", "name": "\u03a4\u03b1\u03b2\u03ad\u03c1\u03bd\u03b1 \u03c4\u03bf\u03c5 \u039c\u03bf\u03c3\u03c6\u03af\u03bb\u03bf\u03c5", "name:el": "\u03a4\u03b1\u03b2\u03ad\u03c1\u03bd\u03b1 \u03c4\u03bf\u03c5 \u039c\u03bf\u03c3\u03c6\u03af\u03bb\u03bf\u03c5", "name:en": "Mosfilos Family Tavern", "outdoor_seating": "yes"}}, {"type": "node", "id": 1274900603, "lat": 35.0360248, "lon": 32.4271949, "tags": {"addr:housenumber": "3", "addr:postcode": "8820", "addr:street": "\u0392\u03b1\u03c3\u03b9\u03bb\u03ad\u03c9\u03c2 \u03a6\u03b9\u03bb\u03af\u03c0\u03c0\u03bf\u03c5", "amenity": "restaurant", "cuisine": "arab;kebab;lebanese;mediterranean", "name": "Ayia Marina", "name:en": "Aris lahmajoun", "opening_hours": "Mo-Sa 12:00-22:30", "phone": "+35726321396;+35797959950"}}, {"type": "node", "id": 1477751508, "lat": 34.9967387, "lon": 32.4730383, "tags": {"amenity": "cafe", "cuisine": "sandwich", "name": "Neromylos Cafe", "wifi": "free"}}, {"type": "node", "id": 1722295639, "lat": 35.0348437, "lon": 32.4234276, "tags": {"amenity": "restaurant", "check_date": "2024-10-27", "cuisine": "greek", "name": "Moustakallis Restaurant", "source": "Visit", "wheelchair": "limited"}}, {"type": "node", "id": 1722295643, "lat": 35.0347699, "lon": 32.4238037}, {"type": "node", "id": 1975731319, "lat": 35.056415, "lon": 32.3472204}, {"type": "node", "id": 2295070419, "lat": 35.0405767, "lon": 32.385756}, {"type": "node", "id": 2295070420, "lat": 35.0405784, "lon": 32.3858565}, {"type": "node", "id": 2295070421, "lat": 35.0407124, "lon": 32.3857525}, {"type": "node", "id": 2295070422, "lat": 35.0407141, "lon": 32.385853}, {"type": "node", "id": 2295070424, "lat": 35.0409335, "lon": 32.3856763}, {"type": "node", "id": 2295070425, "lat": 35.0409412, "lon": 32.3859121}, {"type": "node", "id": 2295070428, "lat": 35.041009, "lon": 32.3856727}, {"type": "node", "id": 2295070429, "lat": 35.0410166, "lon": 32.3859084}, {"type": "node", "id": 2812664682, "lat": 35.033352, "lon": 32.4255933}, {"type": "node", "id": 2812664683, "lat": 35.0332533, "lon": 32.4256317}, {"type": "node", "id": 2812664684, "lat": 35.0332858, "lon": 32.4257511}, {"type": "node", "id": 2812664685, "lat": 35.0333835, "lon": 32.4257113}, {"type": "node", "id": 2813217714, "lat": 35.0332524, "lon": 32.4227859, "tags": {"amenity": "restaurant", "cuisine": "greek", "name": "Mystery Tavern", "phone": "+35799699308", "smoking": "outside"}}, {"type": "node", "id": 3015377733, "lat": 35.062429, "lon": 32.463864, "tags": {"amenity": "cafe", "cuisine": "greek", "internet_access": "wlan", "name": "Halfway House", "operator": "Jack & Vass", "outdoor_seating": "yes", "phone": "+357 26 322129", "smoking": "outside", "takeaway": "yes", "wheelchair": "yes"}}, {"type": "node", "id": 3024732054, "lat": 35.0355806, "lon": 32.4265725}, {"type": "node", "id": 3024732055, "lat": 35.0354349, "lon": 32.4266455}, {"type": "node", "id": 3024732056, "lat": 35.0354792, "lon": 32.4267748}, {"type": "node", "id": 3024732057, "lat": 35.0356192, "lon": 32.4266972}, {"type": "node", "id": 3136374129, "lat": 35.04118, "lon": 32.39356, "tags": {"addr:city": "Latchi", "amenity": "restaurant", "cuisine": "seafood;fish", "internet_access": "wlan", "name": "Fish Tavern Latchi", "outdoor_seating": "yes", "phone": "26321411", "smoking": "outside", "wheelchair": "yes"}}, {"type": "node", "id": 3237823230, "lat": 35.040845, "lon": 32.392388}, {"type": "node", "id": 3237823241, "lat": 35.0409393, "lon": 32.392647}, {"type": "node", "id": 3237823248, "lat": 35.0409671, "lon": 32.3923285}, {"type": "node", "id": 3237823261, "lat": 35.0410487, "lon": 32.3925853}, {"type": "node", "id": 3237823267, "lat": 35.0410826, "lon": 32.3923254}, {"type": "node", "id": 3237823284, "lat": 35.0411542, "lon": 32.392625}, {"type": "node", "id": 3237823286, "lat": 35.0411615, "lon": 32.3922973}, {"type": "node", "id": 3237823293, "lat": 35.0412331, "lon": 32.3925969}, {"type": "node", "id": 3457399306, "lat": 35.0301363, "lon": 32.4138052, "tags": {"amenity": "restaurant", "cuisine": "greek"}}, {"type": "node", "id": 3457406466, "lat": 35.0288846, "lon": 32.4182394, "tags": {"amenity": "restaurant", "cuisine": "greek", "name": "Prodromi Taverna"}}, {"type": "node", "id": 3507647215, "lat": 35.0407263, "lon": 32.3941847, "tags": {"amenity": "restaurant", "name": "Faros", "source:restaurant": "video"}}, {"type": "node", "id": 3508265483, "lat": 34.9838177, "lon": 32.4529806, "tags": {"amenity": "cafe"}}, {"type": "node", "id": 3623618150, "lat": 35.0258268, "lon": 32.3649034, "tags": {"amenity": "restaurant", "name": "Kouppas Stone Castle", "name:de": "Neo Chorio - Kouppas Stone Castle - Tavern"}}, {"type": "node", "id": 3623618151, "lat": 35.024444, "lon": 32.3621427, "tags": {"amenity": "restaurant", "name": "Smivies Tavern", "name:de": "Neo Chorio - Smiyies tavern"}}, {"type": "node", "id": 4109163815, "lat": 35.0357008, "lon": 32.4229901}, {"type": "node", "id": 4109163816, "lat": 35.0357538, "lon": 32.4229075}, {"type": "node", "id": 4109163817, "lat": 35.0357814, "lon": 32.4230672}, {"type": "node", "id": 4109163818, "lat": 35.0358344, "lon": 32.4229846}, {"type": "node", "id": 4304614792, "lat": 35.033677, "lon": 32.4258404, "tags": {"addr:housenumber": "5", "addr:street": "Kyproleontos", "amenity": "restaurant", "cuisine": "fish;greek;italian;mediterranean", "diet:vegetarian": "yes", "email": "oldtownpolis@mail.com", "indoor_seating": "yes", "internet_access": "wlan", "name": "The Old Town restaurant", "opening_hours": "Tu-Su 17:00-22:00", "operator": "\u041a\u0440\u0438\u0441\u0442\u0438\u043d\u0430, \u0412\u0430\u043d\u0433\u0435\u043b\u0438\u0441, \u041a\u043e\u0441\u0442\u0430\u0441.", "outdoor_seating": "yes", "phone": "+35799632781", "wheelchair": "limited"}}, {"type": "node", "id": 4387427089, "lat": 35.0410886, "lon": 32.3937655, "tags": {"amenity": "restaurant", "internet_access": "wlan", "name": "Latchi Plaza Restaurant", "name:en": "Latchi Plaza Restaurant", "phone": "+357 26 321333"}}, {"type": "node", "id": 4433980211, "lat": 35.0261476, "lon": 32.3652631, "tags": {"amenity": "cafe"}}, {"type": "node", "id": 4433984600, "lat": 35.1009672, "lon": 32.5091678, "tags": {"amenity": "restaurant", "name": "Val's Place", "name:en": "Val's Place", "name:fr": "Val's Place"}}, {"type": "node", "id": 4937549872, "lat": 35.0001168, "lon": 32.4704141}, {"type": "node", "id": 4937549873, "lat": 34.9999893, "lon": 32.4703048}, {"type": "node", "id": 4937549874, "lat": 34.9999281, "lon": 32.470426}, {"type": "node", "id": 4937549875, "lat": 35.0000653, "lon": 32.4705248}, {"type": "node", "id": 5015862686, "lat": 35.0354331, "lon": 32.4266577}, {"type": "node", "id": 5015862687, "lat": 35.035467, "lon": 32.4267669}, {"type": "node", "id": 5015862688, "lat": 35.0352934, "lon": 32.4268459}, {"type": "node", "id": 5015862689, "lat": 35.0352601, "lon": 32.4267342}, {"type": "node", "id": 5022512152, "lat": 34.9968434, "lon": 32.4730144}, {"type": "node", "id": 5022512153, "lat": 34.9968742, "lon": 32.473113}, {"type": "node", "id": 5022512154, "lat": 34.9968176, "lon": 32.4731862}, {"type": "node", "id": 5022512155, "lat": 34.9967268, "lon": 32.4731943}, {"type": "node", "id": 5022512156, "lat": 34.9966652, "lon": 32.4731303}, {"type": "node", "id": 5022512157, "lat": 34.9966519, "lon": 32.4730785}, {"type": "node", "id": 5022512158, "lat": 34.9966944, "lon": 32.4730104}, {"type": "node", "id": 5025502952, "lat": 35.0342232, "lon": 32.4233758}, {"type": "node", "id": 5025502954, "lat": 35.0343552, "lon": 32.4233082}, {"type": "node", "id": 5088332721, "lat": 35.0266253, "lon": 32.3650676, "tags": {"amenity": "cafe", "internet_access": "wlan"}}, {"type": "node", "id": 5156931276, "lat": 34.9951993, "lon": 32.5118551}, {"type": "node", "id": 5156931277, "lat": 34.9953667, "lon": 32.5118041}, {"type": "node", "id": 5156931279, "lat": 34.995329, "lon": 32.5119803}, {"type": "node", "id": 5156931281, "lat": 34.9952872, "lon": 32.5117275}, {"type": "node", "id": 5156931284, "lat": 34.9953751, "lon": 32.5119062}, {"type": "node", "id": 5393784823, "lat": 34.9813153, "lon": 32.4515827, "tags": {"amenity": "restaurant", "cuisine": "greek;turkish", "diet:vegetarian": "yes", "indoor_seating": "yes", "name": "Pantelis Traditional Tavern", "name:en": "Pantelis Traditional Tavern", "operator": "Pavel", "outdoor_seating": "yes", "phone": "+357 94 285748"}}, {"type": "node", "id": 5485943556, "lat": 35.0373928, "lon": 32.4331269, "tags": {"addr:housenumber": "38", "addr:street": "\u039b\u03b5\u03c9\u03c6\u03cc\u03c1\u03bf\u03c2 \u039c\u03b1\u03c1\u03af\u03bf\u03c5", "amenity": "cafe", "brand": "Coffee Island", "brand:wikidata": "Q60867333", "brand:wikipedia": "en:Coffee Island", "cuisine": "coffee_shop", "name": "Coffee Island", "opening_hours": "Mo-Su 06:30-22:30", "phone": "+357 26 322870", "takeaway": "yes", "website": "https://www.coffeeisland.com.cy/"}}, {"type": "node", "id": 5613458432, "lat": 35.0792369, "lon": 32.4845089}, {"type": "node", "id": 5613458433, "lat": 35.079349, "lon": 32.4846125}, {"type": "node", "id": 5613458434, "lat": 35.0792098, "lon": 32.4848376}, {"type": "node", "id": 5613458435, "lat": 35.0790976, "lon": 32.4847341}, {"type": "node", "id": 5632037106, "lat": 35.0486482, "lon": 32.3565207, "tags": {"amenity": "restaurant", "name": "Ttakkas Bay", "phone": "+357 26 321087"}}, {"type": "node", "id": 5901826985, "lat": 35.0336369, "lon": 32.4258786, "tags": {"amenity": "cafe", "indoor_seating": "yes", "name": "Kebab House", "outdoor_seating": "yes"}}, {"type": "node", "id": 5929359085, "lat": 35.0408889, "lon": 32.395284, "tags": {"amenity": "restaurant", "name": "Oceano"}}, {"type": "node", "id": 5981397068, "lat": 35.0301234, "lon": 32.3697737}, {"type": "node", "id": 5981397071, "lat": 35.0300385, "lon": 32.369694}, {"type": "node", "id": 5981397098, "lat": 35.0301497, "lon": 32.3695176}, {"type": "node", "id": 5982881534, "lat": 35.0302345, "lon": 32.3695974}, {"type": "node", "id": 6047374441, "lat": 35.0347199, "lon": 32.4240907, "tags": {"addr:housenumber": "5", "addr:street": "\u0393\u03c1\u03af\u03b2\u03b1 \u0394\u03b9\u03b3\u03b5\u03bd\u03ae", "amenity": "cafe", "cuisine": "breakfast;cake;coffee_shop", "indoor_seating": "yes", "internet_access": "wlan", "name": "Saddles Cafe", "outdoor_seating": "yes"}}, {"type": "node", "id": 6047374442, "lat": 35.034807, "lon": 32.4240895, "tags": {"amenity": "cafe", "check_date": "2024-10-27", "indoor_seating": "yes", "name": "La Terrasse 4U", "outdoor_seating": "yes"}}, {"type": "node", "id": 6347345686, "lat": 35.0410348, "lon": 32.3918019, "tags": {"amenity": "restaurant", "check_date": "2024-10-27", "cuisine": "greek", "name": "Islad", "name:en": "Island", "name:sv": "Island", "name:tr": "Island"}}, {"type": "node", "id": 6462011786, "lat": 34.9970928, "lon": 32.4469333, "tags": {"amenity": "restaurant", "name": "Stone Lion", "name:en": "Stone Lion"}}, {"type": "node", "id": 6562897886, "lat": 35.0411126, "lon": 32.3851217, "tags": {"amenity": "restaurant", "cuisine": "greek;mediterranean", "internet_access": "wlan", "name": "Souli Restaurante", "name:en": "Souli Restaurante"}}, {"type": "node", "id": 6562897985, "lat": 35.0411215, "lon": 32.3853247, "tags": {"amenity": "restaurant", "cuisine": "mediterranean;greek", "internet_access": "wlan", "name": "Souli restaurante", "name:en": "Souli restaurante", "phone": "26321088"}}, {"type": "node", "id": 6835184785, "lat": 35.0290532, "lon": 32.4189663, "tags": {"amenity": "cafe", "internet_access": "wlan", "name": "Vrises", "name:en": "Vrises"}}, {"type": "node", "id": 7517625198, "lat": 35.0562599, "lon": 32.3474186}, {"type": "node", "id": 7517625199, "lat": 35.0562302, "lon": 32.3473598}, {"type": "node", "id": 8369723151, "lat": 35.0341915, "lon": 32.4254193}, {"type": "node", "id": 8369723152, "lat": 35.0341997, "lon": 32.4254663}, {"type": "node", "id": 8369723153, "lat": 35.0341448, "lon": 32.4254804}, {"type": "node", "id": 8369723154, "lat": 35.0341367, "lon": 32.4254334}, {"type": "node", "id": 8676405317, "lat": 35.0372825, "lon": 32.3750635, "tags": {"amenity": "fast_food"}}, {"type": "node", "id": 8987598017, "lat": 34.9814262, "lon": 32.4058088, "tags": {"amenity": "cafe", "cuisine": "american;balkan;breakfast;burger;coffee_shop;diner;friture", "internet_access": "wlan", "name": "Gravity Road Dinner"}}, {"type": "node", "id": 8989701023, "lat": 35.0684638, "lon": 32.4716291, "tags": {"amenity": "restaurant", "name": "Pas To Kima"}}, {"type": "node", "id": 9077441251, "lat": 35.0350762, "lon": 32.4237967, "tags": {"amenity": "cafe", "indoor_seating": "yes", "internet_access": "wlan", "internet_access:fee": "no", "name": "Savvas", "outdoor_seating": "yes"}}, {"type": "node", "id": 9077441259, "lat": 35.0350443, "lon": 32.4238343, "tags": {"amenity": "cafe", "indoor_seating": "yes", "internet_access": "wlan", "internet_access:fee": "no", "name": "Central Point Cafe", "outdoor_seating": "yes"}}, {"type": "node", "id": 9355020421, "lat": 35.0342745, "lon": 32.4232565}, {"type": "node", "id": 9652174491, "lat": 35.0695002, "lon": 32.4736085}, {"type": "node", "id": 9652174492, "lat": 35.069338, "lon": 32.4737988}, {"type": "node", "id": 9652174493, "lat": 35.0692281, "lon": 32.4736588}, {"type": "node", "id": 9652174494, "lat": 35.0693904, "lon": 32.4734686}, {"type": "node", "id": 9789098162, "lat": 35.0364212, "lon": 32.4301213, "tags": {"amenity": "cafe", "name": "Marion Cafe"}}, {"type": "node", "id": 9907394079, "lat": 35.0394612, "lon": 32.3966168, "tags": {"amenity": "fast_food", "cuisine": "regional", "name": "Yiannis Sandwich Place"}}, {"type": "node", "id": 10574722306, "lat": 35.0392864, "lon": 32.4032999}, {"type": "node", "id": 10574722307, "lat": 35.0391257, "lon": 32.4033148}, {"type": "node", "id": 10574722308, "lat": 35.0391331, "lon": 32.4034329}, {"type": "node", "id": 10574722309, "lat": 35.0390184, "lon": 32.4034436}, {"type": "node", "id": 10574722310, "lat": 35.0390253, "lon": 32.4035534}, {"type": "node", "id": 10574722311, "lat": 35.0391065, "lon": 32.4035459}, {"type": "node", "id": 10574722312, "lat": 35.0391093, "lon": 32.403592}, {"type": "node", "id": 10574722313, "lat": 35.0392008, "lon": 32.4035835}, {"type": "node", "id": 10574722314, "lat": 35.0391969, "lon": 32.4035206}, {"type": "node", "id": 10574722315, "lat": 35.0392996, "lon": 32.403511}, {"type": "node", "id": 10676776644, "lat": 35.097224, "lon": 32.5263249}, {"type": "node", "id": 10676776645, "lat": 35.097145, "lon": 32.526306}, {"type": "node", "id": 10676776646, "lat": 35.0971144, "lon": 32.5264964}, {"type": "node", "id": 10676776647, "lat": 35.0971934, "lon": 32.5265153}, {"type": "node", "id": 11164909190, "lat": 35.0563166, "lon": 32.3474823}, {"type": "node", "id": 11164909191, "lat": 35.0563266, "lon": 32.347502}, {"type": "node", "id": 11508873269, "lat": 35.0368882, "lon": 32.4268128, "tags": {"addr:housenumber": "22", "addr:postcode": "8820", "addr:street": "\u0391\u03c0\u03bf\u03c3\u03c4\u03cc\u03bb\u03bf\u03c5 \u0391\u03bd\u03b4\u03c1\u03ad\u03b1", "amenity": "fast_food", "cuisine": "american;burger;pizza", "name": "Food Overdose", "name:en": "Food Overdose", "opening_hours": "Mo-Sa 11:00-16:00, 18:00-22:00", "phone": "+35799246043"}}, {"type": "node", "id": 11602511143, "lat": 35.0408896, "lon": 32.3950018, "tags": {"amenity": "cafe", "brand": "Coffee Island", "brand:wikidata": "Q60867333", "cuisine": "coffee_shop", "name": "Coffee Island", "takeaway": "yes"}}, {"type": "node", "id": 12055674511, "lat": 35.034304, "lon": 32.4234275}, {"type": "node", "id": 12479970563, "lat": 35.0377756, "lon": 32.4337308, "tags": {"alt_name": "Cafe Me", "amenity": "cafe", "name": "CAF\u00e9 M\u00e9"}}, {"type": "node", "id": 12479970570, "lat": 35.0376076, "lon": 32.4333906, "tags": {"addr:street": "\u039b\u03b5\u03c9\u03c6\u03cc\u03c1\u03bf\u03c2 \u039c\u03b1\u03c1\u03af\u03bf\u03c5", "amenity": "fast_food", "cuisine": "american;burger;greek;kebab", "delivery": "yes", "name": "Streetadiko", "phone": "+35797884717"}}, {"type": "node", "id": 12480037470, "lat": 35.034699, "lon": 32.4236697}, {"type": "node", "id": 12480037471, "lat": 35.0347926, "lon": 32.4235958}, {"type": "node", "id": 12480037472, "lat": 35.0348209, "lon": 32.4236492}, {"type": "node", "id": 12480037473, "lat": 35.0348503, "lon": 32.4236259}, {"type": "node", "id": 12480037474, "lat": 35.034893, "lon": 32.4237066}, {"type": "node", "id": 12480037475, "lat": 35.0348059, "lon": 32.4237753, "tags": {"entrance": "yes"}}, {"type": "node", "id": 13151151522, "lat": 35.0699085, "lon": 32.4740265, "tags": {"amenity": "restaurant", "cuisine": "italian;pizza", "name": "My Mamma Mia", "opening_hours": "Mo 02:30-23:00; We-Fr 02:30-23:30; Sa 02:00-23:30; Su 12:00-23:30; Tu off", "phone": "+357 26 220595"}}, {"type": "node", "id": 13242855829, "lat": 35.0355106, "lon": 32.4263976, "tags": {"amenity": "restaurant"}}, {"type": "node", "id": 13343148202, "lat": 35.0297596, "lon": 32.4194712, "tags": {"addr:housenumber": "E713", "addr:postcode": "8820", "addr:street": "Leoforos Vasileiou Stasiokou", "amenity": "restaurant", "cuisine": "greek;local", "name": "Gyradiko Ai Giorgis", "opening_hours": "Mo-Su 11:00-23:00", "phone": "+35799099914"}}, {"type": "node", "id": 13344712901, "lat": 35.0334733, "lon": 32.4257967, "tags": {"amenity": "restaurant", "name": "Souvlaki Stavros Petrou", "opening_hours": "Mo-Sa 11:00-21:00", "phone": "+35799627029;+35726322159"}}, {"type": "node", "id": 13624689790, "lat": 35.0300343, "lon": 32.4201539, "tags": {"amenity": "cafe", "check_date": "2026-03-07", "cuisine": "coffee_shop;breakfast", "internet_access": "wlan", "internet_access:fee": "no", "name": "Home Cafe", "outdoor_seating": "yes", "payment:cards": "no", "payment:cash": "yes", "payment:credit_cards": "no", "payment:debit_cards": "no", "phone": "+357964496", "wheelchair": "yes"}}, {"type": "way", "id": 52712366, "nodes": [1975731319, 7517625199, 7517625198, 669029768, 669029770, 11164909190, 11164909191, 669029772, 1975731319], "tags": {"amenity": "restaurant", "building": "yes", "cuisine": "seafood", "email": "marinapapalouca@gmail.com", "indoor_seating": "yes", "internet_access": "wlan", "mobile": "99 655 505", "name": "Baths of Aphrodite Restaurant", "operator": "Dinos Paraskeva", "outdoor_seating": "yes", "phone": "26 321 457; 26 322 070", "smoking": "outside"}}, {"type": "way", "id": 220383260, "nodes": [2295070428, 2295070429, 2295070425, 2295070424, 2295070428], "tags": {"amenity": "restaurant", "building": "yes", "name": "Periyiali", "website": "http://www.periyiali.com/"}}, {"type": "way", "id": 220383261, "nodes": [2295070421, 2295070422, 2295070420, 2295070419, 2295070421], "tags": {"amenity": "restaurant", "building": "yes", "name": "Periyiali", "website": "http://www.periyiali.com/"}}, {"type": "way", "id": 276674448, "nodes": [2812664682, 2812664683, 2812664684, 2812664685, 2812664682], "tags": {"amenity": "cafe", "building": "yes", "internet_access": "wlan", "name": "Insomnia Cafe Bar"}}, {"type": "way", "id": 298581888, "nodes": [3024732054, 3024732055, 3024732056, 3024732057, 3024732054], "tags": {"addr:city": "Polis Chrysochous", "addr:street": "\u039c\u03b1\u03ba\u03b1\u03c1\u03af\u03bf\u03c5 \u0393\u0384", "amenity": "restaurant", "building": "house", "name": "Polis Herb Garden", "wheelchair": "yes"}}, {"type": "way", "id": 317509631, "nodes": [3237823248, 3237823230, 3237823241, 3237823261, 3237823248], "tags": {"amenity": "restaurant", "building": "yes", "name": "Porto Latchi", "source:restaurant": "video"}}, {"type": "way", "id": 317509639, "nodes": [3237823286, 3237823267, 3237823284, 3237823293, 3237823286], "tags": {"amenity": "restaurant", "building": "yes", "check_date": "2024-10-27", "internet_access": "wlan", "name": "Porto Latchi", "source:restaurant": "video"}}, {"type": "way", "id": 409021295, "nodes": [4109163816, 4109163818, 4109163817, 4109163815, 4109163816], "tags": {"addr:city": "Polis Chrysochous", "addr:street": "\u0391\u03b3\u03af\u03b1\u03c2 \u039a\u03c5\u03c1\u03b9\u03b1\u03ba\u03ae\u03c2", "amenity": "cafe", "building": "yes", "cuisine": "cake", "internet_access": "no", "name": "The Art Caf\u00e9 in Polis", "outdoor_seating": "yes", "phone": "99555193", "smoking": "outside", "wheelchair": "yes"}}, {"type": "way", "id": 503446298, "nodes": [4937549872, 4937549873, 4937549874, 4937549875, 4937549872], "tags": {"addr:city": "Steni 8884, Cyprus", "addr:postcode": "8884", "addr:street": "Steni BOX 80,", "amenity": "restaurant", "building": "yes", "cuisine": "greek", "name": "Steni (Koulla Kalimani ) Taverna", "outdoor_seating": "yes", "phone": "+357 99 233187", "smoking": "outside"}}, {"type": "way", "id": 513013797, "nodes": [5015862686, 5015862687, 5015862688, 5015862689, 5015862686], "tags": {"amenity": "restaurant", "building": "yes", "name": "Herb garden", "toilets:wheelchair": "yes", "wheelchair": "yes"}}, {"type": "way", "id": 513971603, "nodes": [5022512152, 5022512153, 5022512154, 5022512155, 5022512156, 5022512157, 5022512158, 5022512152], "tags": {"amenity": "restaurant", "building": "yes"}}, {"type": "way", "id": 514376432, "nodes": [9355020421, 5025502952, 12055674511, 5025502954, 9355020421], "tags": {"amenity": "restaurant", "building": "yes", "name": "Taverna I Parea", "name:en": "Tavern I Parea", "wheelchair": "limited"}}, {"type": "way", "id": 531229895, "nodes": [5156931277, 5156931284, 5156931279, 5156931276, 5156931281, 5156931277], "tags": {"amenity": "restaurant", "building": "yes", "cuisine": "coffee_shop;pizza;regional;sandwich", "internet_access": "wlan", "name": "Lysos Tavern", "opening_hours": "Mo-Su 08:00-22:00", "outdoor_seating": "yes", "self_service": "no"}}, {"type": "way", "id": 587684519, "nodes": [5613458432, 5613458433, 5613458434, 5613458435, 5613458432], "tags": {"amenity": "restaurant", "building": "yes", "name": "Santa Barbara", "outdoor_seating": "yes"}}, {"type": "way", "id": 633669196, "nodes": [5982881534, 5981397068, 5981397071, 5981397098, 5982881534], "tags": {"addr:city": "Neo Chorio", "addr:housenumber": "32", "addr:street": "\u039a\u03b1\u03bb\u03bb\u03b9\u03b8\u03ad\u03b1\u03c2", "amenity": "restaurant", "building": "yes", "cuisine": "greek", "name": "Pavlaras Tavern", "opening_hours": "Mo off; Tu-Sa 12:00-23:00; Su 12:00-16:00", "phone": "+35726321714"}}, {"type": "way", "id": 900958152, "nodes": [8369723151, 8369723152, 8369723153, 8369723154, 8369723151], "tags": {"amenity": "cafe", "building": "commercial", "building:levels": "2"}}, {"type": "way", "id": 1050329757, "nodes": [9652174491, 9652174492, 9652174493, 9652174494, 9652174491], "tags": {"amenity": "restaurant", "building": "yes", "cuisine": "regional;irish_pub"}}, {"type": "way", "id": 1134279761, "nodes": [10574722306, 10574722307, 10574722308, 10574722309, 10574722310, 10574722311, 10574722312, 10574722313, 10574722314, 10574722315, 10574722306], "tags": {"amenity": "restaurant", "building": "yes", "name": "La Plage", "name:en": "La Plage", "wheelchair": "yes"}}, {"type": "way", "id": 1147423836, "nodes": [10676776644, 10676776645, 10676776646, 10676776647, 10676776644], "tags": {"amenity": "restaurant", "building": "yes", "name": "\u039c\u03cd\u03bb\u03bf\u03c2", "name:el": "\u039c\u03cd\u03bb\u03bf\u03c2", "name:en": "Mylos"}}, {"type": "way", "id": 1349166297, "nodes": [1722295643, 12480037470, 12480037471, 12480037472, 12480037473, 12480037474, 12480037475, 1722295643], "tags": {"addr:city": "Polis Chrysochous", "addr:housenumber": "No. 1 Village Square", "addr:street": "9th Iouliou", "amenity": "restaurant", "bar": "yes", "building": "yes", "cuisine": "greek", "email": "info@finikasrestaurant.com", "highchair": "yes", "name": "Finikas Restaurant", "outdoor_seating": "yes", "phone": "+35726323403", "reservation": "yes", "source": "Visit", "toilets": "yes", "website": "https://finikasrestaurant.net", "website:menu": "https://finikasrestaurant.net/FinikasMenu.pdf", "wheelchair": "yes"}}]}