{"version": 0.6, "generator": "Overpass API 0.7.62.11 87bfad18", "osm3s": {"timestamp_osm_base": "2026-04-29T13:03:26Z", "copyright": "The data included in this document is from www.openstreetmap.org. The data is made available under ODbL."}, "elements": [{"type": "node", "id": 4704474241, "lat": 41.948516, "lon": 34.0122523}, {"type": "node", "id": 4704474242, "lat": 41.9482084, "lon": 34.0127748}, {"type": "node", "id": 4704474243, "lat": 41.9485269, "lon": 34.0133658}, {"type": "node", "id": 4704474244, "lat": 41.9489796, "lon": 34.0126841}, {"type": "node", "id": 8440059842, "lat": 41.9483503, "lon": 34.0129559}, {"type": "node", "id": 8440059843, "lat": 41.9484602, "lon": 34.0131599}, {"type": "node", "id": 9758888428, "lat": 41.9791298, "lon": 33.9941228}, {"type": "node", "id": 9758888429, "lat": 41.9794529, "lon": 33.9925168}, {"type": "node", "id": 9758888430, "lat": 41.9796788, "lon": 33.9939633}, {"type": "node", "id": 9758888431, "lat": 41.9791521, "lon": 33.9943334}, {"type": "node", "id": 9758888432, "lat": 41.9784302, "lon": 33.9943279}, {"type": "node", "id": 9758888433, "lat": 41.9783653, "lon": 33.9929381}, {"type": "way", "id": 477037685, "nodes": [4704474241, 4704474242, 8440059842, 8440059843, 4704474243, 4704474244, 4704474241], "tags": {"amenity": "university", "name": "Kastamonu \u00dcniversitesi Bozkurt Meslek Y\u00fcksekokulu"}}, {"type": "way", "id": 1062262958, "nodes": [9758888431, 9758888428, 9758888430, 9758888429, 9758888433, 9758888432, 9758888431], "tags": {"addr:city": "Kastamonu", "addr:district": "Abana", "addr:housenumber": "2", "addr:neighbourhood": "Konak\u00f6ren", "addr:street": "Kamil Yazkan Soka\u011f\u0131", "amenity": "university", "name": "Abana Sabahat Mesut Y\u0131lmaz Meslek Y\u00fcksekokulu", "operator": "Kastamonu \u00dcniversitesi", "operator:type": "public", "phone": "+903662805600", "website": "https://abana.kastamonu.edu.tr/"}}]}